{
  "Entries": [
    {
      "RequestUri": "https://management.azure.com/subscriptions/db1ab6f0-4769-4b27-930e-01e2ef9c123c/resourcegroups/LogicAppRG-3544?api-version=**",
      "RequestMethod": "GET",
      "RequestHeaders": {
        "Accept": "application/json",
        "Authorization": "Sanitized",
        "traceparent": "00-fb3f0c6d9238164780d354c364dd56ab-cc83d186059b3549-00",
        "User-Agent": "azsdk-net-ResourceManager/1.3.0 (.NET Core 3.1.28; Microsoft Windows 10.0.22000)",
        "x-ms-client-request-id": "775d1cd8aa96cb0b930fc9470d761760",
        "x-ms-return-client-request-id": "true"
      },
      "RequestBody": null,
      "StatusCode": 200,
      "ResponseHeaders": {
        "Cache-Control": "no-cache",
        "Content-Length": "230",
        "Content-Type": "application/json; charset=utf-8",
        "Date": "Fri, 26 Aug 2022 09:05:54 GMT",
        "Expires": "-1",
        "Pragma": "no-cache",
        "Strict-Transport-Security": "max-age=31536000; includeSubDomains",
        "X-Content-Type-Options": "nosniff",
        "x-ms-correlation-request-id": "f8f68299-8b4b-4bc1-80e2-c7b2ca437968",
        "x-ms-ratelimit-remaining-subscription-reads": "11982",
        "x-ms-request-id": "f8f68299-8b4b-4bc1-80e2-c7b2ca437968",
        "x-ms-routing-request-id": "SOUTHEASTASIA:20220826T090555Z:f8f68299-8b4b-4bc1-80e2-c7b2ca437968"
      },
      "ResponseBody": {
        "id": "/subscriptions/db1ab6f0-4769-4b27-930e-01e2ef9c123c/resourceGroups/LogicAppRG-3544",
        "name": "LogicAppRG-3544",
        "type": "Microsoft.Resources/resourceGroups",
        "location": "centralus",
        "properties": {
          "provisioningState": "Succeeded"
        }
      }
    },
    {
      "RequestUri": "https://management.azure.com/subscriptions/db1ab6f0-4769-4b27-930e-01e2ef9c123c/resourceGroups/LogicAppRG-3544/providers/Microsoft.Logic/workflows/workflow8822?api-version=2019-05-01",
      "RequestMethod": "PUT",
      "RequestHeaders": {
        "Accept": "application/json",
        "Authorization": "Sanitized",
        "Content-Length": "590",
        "Content-Type": "application/json",
        "traceparent": "00-0f8e893f13c4234eac1b76cf10281b60-54bc9e4fedc34e4d-00",
        "User-Agent": "azsdk-net-ResourceManager.Logic/1.0.0-alpha.20220825.1 (.NET Core 3.1.28; Microsoft Windows 10.0.22000)",
        "x-ms-client-request-id": "ebacf2d37d3691d066d8369ce93dc24b",
        "x-ms-return-client-request-id": "true"
      },
      "RequestBody": {
        "tags": {},
        "location": "centralus",
        "properties": {
          "integrationAccount": {
            "id": "/subscriptions/db1ab6f0-4769-4b27-930e-01e2ef9c123c/resourceGroups/LogicAppRG-3544/providers/Microsoft.Logic/integrationAccounts/integration4878"
          },
          "definition": {
            "$schema": "https://schema.management.azure.com/providers/Microsoft.Logic/schemas/2016-06-01/workflowdefinition.json#",
            "contentVersion": "1.0.0.0",
            "parameters": {},
            "triggers": {
              "manual": {
                "type": "Request",
                "kind": "Http",
                "inputs": {
                  "schema": {}
                }
              }
            },
            "actions": {
              "Response": {
                "runAfter": {},
                "type": "Response",
                "kind": "Http",
                "inputs": {
                  "statusCode": 200
                }
              }
            },
            "outputs": {}
          }
        }
      },
      "StatusCode": 201,
      "ResponseHeaders": {
        "Cache-Control": "no-cache",
        "Content-Length": "2042",
        "Content-Type": "application/json; charset=utf-8",
        "Date": "Fri, 26 Aug 2022 09:05:58 GMT",
        "Expires": "-1",
        "Pragma": "no-cache",
        "Strict-Transport-Security": "max-age=31536000; includeSubDomains",
        "X-Content-Type-Options": "nosniff",
        "x-ms-correlation-request-id": "c4ef4b3d-1186-4e41-aeb4-35c7dea77499",
        "x-ms-ratelimit-remaining-subscription-writes": "1187",
        "x-ms-request-id": "centralus:0d747892-fae1-4227-a1b1-ea5eb626e416",
        "x-ms-routing-request-id": "SOUTHEASTASIA:20220826T090559Z:c4ef4b3d-1186-4e41-aeb4-35c7dea77499"
      },
      "ResponseBody": {
        "properties": {
          "provisioningState": "Succeeded",
          "createdTime": "2022-08-26T09:05:57.6320933Z",
          "changedTime": "2022-08-26T09:05:57.6216884Z",
          "state": "Enabled",
          "version": "08585401021278849500",
          "accessEndpoint": "https://prod-06.centralus.logic.azure.com:443/workflows/586fc8de513a4b7bb47b14e5374f398e",
          "integrationAccount": {
            "name": "integration4878",
            "id": "/subscriptions/db1ab6f0-4769-4b27-930e-01e2ef9c123c/resourceGroups/LogicAppRG-3544/providers/Microsoft.Logic/integrationAccounts/integration4878",
            "type": "Microsoft.Logic/integrationAccounts"
          },
          "definition": {
            "$schema": "https://schema.management.azure.com/providers/Microsoft.Logic/schemas/2016-06-01/workflowdefinition.json#",
            "contentVersion": "1.0.0.0",
            "parameters": {},
            "triggers": {
              "manual": {
                "type": "Request",
                "kind": "Http",
                "inputs": {
                  "schema": {}
                }
              }
            },
            "actions": {
              "Response": {
                "runAfter": {},
                "type": "Response",
                "kind": "Http",
                "inputs": {
                  "statusCode": 200
                }
              }
            },
            "outputs": {}
          },
          "parameters": {},
          "endpointsConfiguration": {
            "workflow": {
              "outgoingIpAddresses": [
                {
                  "address": "13.67.236.125"
                },
                {
                  "address": "104.208.25.27"
                },
                {
                  "address": "40.122.170.198"
                },
                {
                  "address": "40.113.218.230"
                },
                {
                  "address": "23.100.86.139"
                },
                {
                  "address": "23.100.87.24"
                },
                {
                  "address": "23.100.87.56"
                },
                {
                  "address": "23.100.82.16"
                },
                {
                  "address": "52.141.221.6"
                },
                {
                  "address": "52.141.218.55"
                },
                {
                  "address": "20.109.202.36"
                },
                {
                  "address": "20.109.202.29"
                }
              ],
              "accessEndpointIpAddresses": [
                {
                  "address": "13.67.236.76"
                },
                {
                  "address": "40.77.111.254"
                },
                {
                  "address": "40.77.31.87"
                },
                {
                  "address": "104.43.243.39"
                },
                {
                  "address": "13.86.98.126"
                },
                {
                  "address": "20.109.202.37"
                }
              ]
            },
            "connector": {
              "outgoingIpAddresses": [
                {
                  "address": "52.173.241.27"
                },
                {
                  "address": "52.173.245.164"
                },
                {
                  "address": "13.89.171.80/28"
                },
                {
                  "address": "13.89.178.64/27"
                },
                {
                  "address": "40.77.68.110"
                },
                {
                  "address": "20.98.144.224/27"
                },
                {
                  "address": "20.98.145.0/28"
                },
                {
                  "address": "20.80.123.134"
                },
                {
                  "address": "20.80.123.57"
                }
              ]
            }
          }
        },
        "id": "/subscriptions/db1ab6f0-4769-4b27-930e-01e2ef9c123c/resourceGroups/LogicAppRG-3544/providers/Microsoft.Logic/workflows/workflow8822",
        "name": "workflow8822",
        "type": "Microsoft.Logic/workflows",
        "location": "centralus",
        "tags": {}
      }
    },
    {
      "RequestUri": "https://management.azure.com/subscriptions/db1ab6f0-4769-4b27-930e-01e2ef9c123c/resourceGroups/LogicAppRG-3544/providers/Microsoft.Logic/workflows?api-version=2019-05-01",
      "RequestMethod": "GET",
      "RequestHeaders": {
        "Accept": "application/json",
        "Authorization": "Sanitized",
        "traceparent": "00-742e8b15b5b79d44bca13a79715ff136-f5d56a60a0b0b943-00",
        "User-Agent": "azsdk-net-ResourceManager.Logic/1.0.0-alpha.20220825.1 (.NET Core 3.1.28; Microsoft Windows 10.0.22000)",
        "x-ms-client-request-id": "d69374a26356a3b62f3f32b76f04dcdb",
        "x-ms-return-client-request-id": "true"
      },
      "RequestBody": null,
      "StatusCode": 200,
      "ResponseHeaders": {
        "Cache-Control": "no-cache",
        "Content-Length": "8179",
        "Content-Type": "application/json; charset=utf-8",
        "Date": "Fri, 26 Aug 2022 09:05:58 GMT",
        "Expires": "-1",
        "Pragma": "no-cache",
        "Strict-Transport-Security": "max-age=31536000; includeSubDomains",
        "Vary": "Accept-Encoding",
        "X-Content-Type-Options": "nosniff",
        "x-ms-correlation-request-id": "aaa9f4a3-144e-4f6e-92c6-2b70a854c3f4",
        "x-ms-ratelimit-remaining-subscription-resource-requests": "19989",
        "x-ms-request-id": "centralus:f5753d1f-ddd8-483a-9c38-a82f1ce8d2f1",
        "x-ms-routing-request-id": "SOUTHEASTASIA:20220826T090559Z:aaa9f4a3-144e-4f6e-92c6-2b70a854c3f4"
      },
      "ResponseBody": {
        "value": [
          {
            "properties": {
              "provisioningState": "Succeeded",
              "createdTime": "2022-08-26T09:05:33.8799464Z",
              "changedTime": "2022-08-26T09:05:33.8716372Z",
              "state": "Enabled",
              "version": "08585401021516271922",
              "accessEndpoint": "https://prod-17.centralus.logic.azure.com:443/workflows/bd8148c469be4f02b1aa0d80112c2bfd",
              "integrationAccount": {
                "name": "integration4878",
                "id": "/subscriptions/db1ab6f0-4769-4b27-930e-01e2ef9c123c/resourceGroups/LogicAppRG-3544/providers/Microsoft.Logic/integrationAccounts/integration4878",
                "type": "Microsoft.Logic/integrationAccounts"
              },
              "definition": {
                "$schema": "https://schema.management.azure.com/providers/Microsoft.Logic/schemas/2016-06-01/workflowdefinition.json#",
                "contentVersion": "1.0.0.0",
                "parameters": {},
                "triggers": {
                  "manual": {
                    "type": "Request",
                    "kind": "Http",
                    "inputs": {
                      "schema": {}
                    }
                  }
                },
                "actions": {
                  "Response": {
                    "runAfter": {},
                    "type": "Response",
                    "kind": "Http",
                    "inputs": {
                      "statusCode": 200
                    }
                  }
                },
                "outputs": {}
              },
              "parameters": {},
              "endpointsConfiguration": {
                "workflow": {
                  "outgoingIpAddresses": [
                    {
                      "address": "13.67.236.125"
                    },
                    {
                      "address": "104.208.25.27"
                    },
                    {
                      "address": "40.122.170.198"
                    },
                    {
                      "address": "40.113.218.230"
                    },
                    {
                      "address": "23.100.86.139"
                    },
                    {
                      "address": "23.100.87.24"
                    },
                    {
                      "address": "23.100.87.56"
                    },
                    {
                      "address": "23.100.82.16"
                    },
                    {
                      "address": "52.141.221.6"
                    },
                    {
                      "address": "52.141.218.55"
                    },
                    {
                      "address": "20.109.202.36"
                    },
                    {
                      "address": "20.109.202.29"
                    }
                  ],
                  "accessEndpointIpAddresses": [
                    {
                      "address": "13.67.236.76"
                    },
                    {
                      "address": "40.77.111.254"
                    },
                    {
                      "address": "40.77.31.87"
                    },
                    {
                      "address": "104.43.243.39"
                    },
                    {
                      "address": "13.86.98.126"
                    },
                    {
                      "address": "20.109.202.37"
                    }
                  ]
                },
                "connector": {
                  "outgoingIpAddresses": [
                    {
                      "address": "52.173.241.27"
                    },
                    {
                      "address": "52.173.245.164"
                    },
                    {
                      "address": "13.89.171.80/28"
                    },
                    {
                      "address": "13.89.178.64/27"
                    },
                    {
                      "address": "40.77.68.110"
                    },
                    {
                      "address": "20.98.144.224/27"
                    },
                    {
                      "address": "20.98.145.0/28"
                    },
                    {
                      "address": "20.80.123.134"
                    },
                    {
                      "address": "20.80.123.57"
                    }
                  ]
                }
              }
            },
            "id": "/subscriptions/db1ab6f0-4769-4b27-930e-01e2ef9c123c/resourceGroups/LogicAppRG-3544/providers/Microsoft.Logic/workflows/workflow268",
            "name": "workflow268",
            "type": "Microsoft.Logic/workflows",
            "location": "centralus",
            "tags": {}
          },
          {
            "properties": {
              "provisioningState": "Succeeded",
              "createdTime": "2022-08-26T09:05:49.305957Z",
              "changedTime": "2022-08-26T09:05:49.2935667Z",
              "state": "Enabled",
              "version": "08585401021362028634",
              "accessEndpoint": "https://prod-07.centralus.logic.azure.com:443/workflows/a55ce60329db4060bba31ef5ffa0b30f",
              "integrationAccount": {
                "name": "integration4878",
                "id": "/subscriptions/db1ab6f0-4769-4b27-930e-01e2ef9c123c/resourceGroups/LogicAppRG-3544/providers/Microsoft.Logic/integrationAccounts/integration4878",
                "type": "Microsoft.Logic/integrationAccounts"
              },
              "definition": {
                "$schema": "https://schema.management.azure.com/providers/Microsoft.Logic/schemas/2016-06-01/workflowdefinition.json#",
                "contentVersion": "1.0.0.0",
                "parameters": {},
                "triggers": {
                  "manual": {
                    "type": "Request",
                    "kind": "Http",
                    "inputs": {
                      "schema": {}
                    }
                  }
                },
                "actions": {
                  "Response": {
                    "runAfter": {},
                    "type": "Response",
                    "kind": "Http",
                    "inputs": {
                      "statusCode": 200
                    }
                  }
                },
                "outputs": {}
              },
              "parameters": {},
              "endpointsConfiguration": {
                "workflow": {
                  "outgoingIpAddresses": [
                    {
                      "address": "13.67.236.125"
                    },
                    {
                      "address": "104.208.25.27"
                    },
                    {
                      "address": "40.122.170.198"
                    },
                    {
                      "address": "40.113.218.230"
                    },
                    {
                      "address": "23.100.86.139"
                    },
                    {
                      "address": "23.100.87.24"
                    },
                    {
                      "address": "23.100.87.56"
                    },
                    {
                      "address": "23.100.82.16"
                    },
                    {
                      "address": "52.141.221.6"
                    },
                    {
                      "address": "52.141.218.55"
                    },
                    {
                      "address": "20.109.202.36"
                    },
                    {
                      "address": "20.109.202.29"
                    }
                  ],
                  "accessEndpointIpAddresses": [
                    {
                      "address": "13.67.236.76"
                    },
                    {
                      "address": "40.77.111.254"
                    },
                    {
                      "address": "40.77.31.87"
                    },
                    {
                      "address": "104.43.243.39"
                    },
                    {
                      "address": "13.86.98.126"
                    },
                    {
                      "address": "20.109.202.37"
                    }
                  ]
                },
                "connector": {
                  "outgoingIpAddresses": [
                    {
                      "address": "52.173.241.27"
                    },
                    {
                      "address": "52.173.245.164"
                    },
                    {
                      "address": "13.89.171.80/28"
                    },
                    {
                      "address": "13.89.178.64/27"
                    },
                    {
                      "address": "40.77.68.110"
                    },
                    {
                      "address": "20.98.144.224/27"
                    },
                    {
                      "address": "20.98.145.0/28"
                    },
                    {
                      "address": "20.80.123.134"
                    },
                    {
                      "address": "20.80.123.57"
                    }
                  ]
                }
              }
            },
            "id": "/subscriptions/db1ab6f0-4769-4b27-930e-01e2ef9c123c/resourceGroups/LogicAppRG-3544/providers/Microsoft.Logic/workflows/workflow6130",
            "name": "workflow6130",
            "type": "Microsoft.Logic/workflows",
            "location": "centralus",
            "tags": {}
          },
          {
            "properties": {
              "provisioningState": "Succeeded",
              "createdTime": "2022-08-26T09:05:57.6320933Z",
              "changedTime": "2022-08-26T09:05:57.6216884Z",
              "state": "Enabled",
              "version": "08585401021278849500",
              "accessEndpoint": "https://prod-06.centralus.logic.azure.com:443/workflows/586fc8de513a4b7bb47b14e5374f398e",
              "integrationAccount": {
                "name": "integration4878",
                "id": "/subscriptions/db1ab6f0-4769-4b27-930e-01e2ef9c123c/resourceGroups/LogicAppRG-3544/providers/Microsoft.Logic/integrationAccounts/integration4878",
                "type": "Microsoft.Logic/integrationAccounts"
              },
              "definition": {
                "$schema": "https://schema.management.azure.com/providers/Microsoft.Logic/schemas/2016-06-01/workflowdefinition.json#",
                "contentVersion": "1.0.0.0",
                "parameters": {},
                "triggers": {
                  "manual": {
                    "type": "Request",
                    "kind": "Http",
                    "inputs": {
                      "schema": {}
                    }
                  }
                },
                "actions": {
                  "Response": {
                    "runAfter": {},
                    "type": "Response",
                    "kind": "Http",
                    "inputs": {
                      "statusCode": 200
                    }
                  }
                },
                "outputs": {}
              },
              "parameters": {},
              "endpointsConfiguration": {
                "workflow": {
                  "outgoingIpAddresses": [
                    {
                      "address": "13.67.236.125"
                    },
                    {
                      "address": "104.208.25.27"
                    },
                    {
                      "address": "40.122.170.198"
                    },
                    {
                      "address": "40.113.218.230"
                    },
                    {
                      "address": "23.100.86.139"
                    },
                    {
                      "address": "23.100.87.24"
                    },
                    {
                      "address": "23.100.87.56"
                    },
                    {
                      "address": "23.100.82.16"
                    },
                    {
                      "address": "52.141.221.6"
                    },
                    {
                      "address": "52.141.218.55"
                    },
                    {
                      "address": "20.109.202.36"
                    },
                    {
                      "address": "20.109.202.29"
                    }
                  ],
                  "accessEndpointIpAddresses": [
                    {
                      "address": "13.67.236.76"
                    },
                    {
                      "address": "40.77.111.254"
                    },
                    {
                      "address": "40.77.31.87"
                    },
                    {
                      "address": "104.43.243.39"
                    },
                    {
                      "address": "13.86.98.126"
                    },
                    {
                      "address": "20.109.202.37"
                    }
                  ]
                },
                "connector": {
                  "outgoingIpAddresses": [
                    {
                      "address": "52.173.241.27"
                    },
                    {
                      "address": "52.173.245.164"
                    },
                    {
                      "address": "13.89.171.80/28"
                    },
                    {
                      "address": "13.89.178.64/27"
                    },
                    {
                      "address": "40.77.68.110"
                    },
                    {
                      "address": "20.98.144.224/27"
                    },
                    {
                      "address": "20.98.145.0/28"
                    },
                    {
                      "address": "20.80.123.134"
                    },
                    {
                      "address": "20.80.123.57"
                    }
                  ]
                }
              }
            },
            "id": "/subscriptions/db1ab6f0-4769-4b27-930e-01e2ef9c123c/resourceGroups/LogicAppRG-3544/providers/Microsoft.Logic/workflows/workflow8822",
            "name": "workflow8822",
            "type": "Microsoft.Logic/workflows",
            "location": "centralus",
            "tags": {}
          },
          {
            "properties": {
              "provisioningState": "Succeeded",
              "createdTime": "2022-08-26T09:05:53.2916223Z",
              "changedTime": "2022-08-26T09:05:53.277953Z",
              "state": "Enabled",
              "version": "08585401021322040883",
              "accessEndpoint": "https://prod-10.centralus.logic.azure.com:443/workflows/09d2d57fa5e4487eb1c4db4b62e92106",
              "integrationAccount": {
                "name": "integration4878",
                "id": "/subscriptions/db1ab6f0-4769-4b27-930e-01e2ef9c123c/resourceGroups/LogicAppRG-3544/providers/Microsoft.Logic/integrationAccounts/integration4878",
                "type": "Microsoft.Logic/integrationAccounts"
              },
              "definition": {
                "$schema": "https://schema.management.azure.com/providers/Microsoft.Logic/schemas/2016-06-01/workflowdefinition.json#",
                "contentVersion": "1.0.0.0",
                "parameters": {},
                "triggers": {
                  "manual": {
                    "type": "Request",
                    "kind": "Http",
                    "inputs": {
                      "schema": {}
                    }
                  }
                },
                "actions": {
                  "Response": {
                    "runAfter": {},
                    "type": "Response",
                    "kind": "Http",
                    "inputs": {
                      "statusCode": 200
                    }
                  }
                },
                "outputs": {}
              },
              "parameters": {},
              "endpointsConfiguration": {
                "workflow": {
                  "outgoingIpAddresses": [
                    {
                      "address": "13.67.236.125"
                    },
                    {
                      "address": "104.208.25.27"
                    },
                    {
                      "address": "40.122.170.198"
                    },
                    {
                      "address": "40.113.218.230"
                    },
                    {
                      "address": "23.100.86.139"
                    },
                    {
                      "address": "23.100.87.24"
                    },
                    {
                      "address": "23.100.87.56"
                    },
                    {
                      "address": "23.100.82.16"
                    },
                    {
                      "address": "52.141.221.6"
                    },
                    {
                      "address": "52.141.218.55"
                    },
                    {
                      "address": "20.109.202.36"
                    },
                    {
                      "address": "20.109.202.29"
                    }
                  ],
                  "accessEndpointIpAddresses": [
                    {
                      "address": "13.67.236.76"
                    },
                    {
                      "address": "40.77.111.254"
                    },
                    {
                      "address": "40.77.31.87"
                    },
                    {
                      "address": "104.43.243.39"
                    },
                    {
                      "address": "13.86.98.126"
                    },
                    {
                      "address": "20.109.202.37"
                    }
                  ]
                },
                "connector": {
                  "outgoingIpAddresses": [
                    {
                      "address": "52.173.241.27"
                    },
                    {
                      "address": "52.173.245.164"
                    },
                    {
                      "address": "13.89.171.80/28"
                    },
                    {
                      "address": "13.89.178.64/27"
                    },
                    {
                      "address": "40.77.68.110"
                    },
                    {
                      "address": "20.98.144.224/27"
                    },
                    {
                      "address": "20.98.145.0/28"
                    },
                    {
                      "address": "20.80.123.134"
                    },
                    {
                      "address": "20.80.123.57"
                    }
                  ]
                }
              }
            },
            "id": "/subscriptions/db1ab6f0-4769-4b27-930e-01e2ef9c123c/resourceGroups/LogicAppRG-3544/providers/Microsoft.Logic/workflows/workflow9611",
            "name": "workflow9611",
            "type": "Microsoft.Logic/workflows",
            "location": "centralus",
            "tags": {}
          }
        ]
      }
    }
  ],
  "Variables": {
    "AZURE_AUTHORITY_HOST": "https://login.microsoftonline.com",
    "RandomSeed": "1116032474",
    "RESOURCE_MANAGER_URL": null,
    "SUBSCRIPTION_ID": "db1ab6f0-4769-4b27-930e-01e2ef9c123c"
  }
}
